 [
  {
  "name":"无锡天润医药连锁有限公司同德堂药店",
  "address":"无锡市南长区水仙里1号-8",
  "latitude":"31.577428",
  "longitude":"120.298697"
  },
  {
  "name":"无锡天润医药连锁有限公司延益堂药店",
  "address":"无锡市中山路684号",
  "latitude":"31.58571",
  "longitude":"120.296174"
  },
  {
  "name":"无锡天润医药连锁有限公司月秀药店",
  "address":"无锡市滨湖区建筑路月秀东园9-11",
  "latitude":"31.549137",
  "longitude":"120.282795"
  },
  {
  "name":"无锡天润医药连锁有限公司通江药店",
  "address":"无锡市金河湾家园79号、80号",
  "latitude":"31.592868",
  "longitude":"120.311782"
  },
  {
  "name":"无锡天润医药连锁有限公司春江花园药店",
  "address":"无锡市锡山区东亭镇春江花园255-41、42号",
  "latitude":"31.577642",
  "longitude":"120.354129"
  },
  {
  "name":"无锡天润医药连锁有限公司沁园新村药店",
  "address":"无锡市沁园新村五星小区B2栋1-7、8号",
  "latitude":"31.540502",
  "longitude":"120.315821"
  },
  {
  "name":"无锡天润医药连锁有限公司旺庄药店",
  "address":"无锡市新区新光嘉园8-38号",
  "latitude":"31.536348",
  "longitude":"120.342021"
  },
  {
  "name":"无锡天润医药连锁有限公司天一药店",
  "address":"无锡市惠山区堰桥街道天一街64号104室",
  "latitude":"31.638969",
  "longitude":"120.297418"
  },
  {
  "name":"无锡天润医药连锁有限公司华清药店",
  "address":"无锡市新区硕放镇通祥北路69号",
  "latitude":"31.488123",
  "longitude":"120.451846"
  },
  {
  "name":"无锡天润医药连锁有限公司滨湖药店",
  "address":"无锡市滨湖区观山路天鹅湖花园B1区100-54号",
  "latitude":"31.488957",
  "longitude":"120.280603"
  },
  {
  "name":"无锡天润医药连锁有限公司银湖药店",
  "address":"无锡市滨湖区梅园独月路2#4#",
  "latitude":"31.548786",
  "longitude":"120.215642"
  },
  {
  "name":"无锡天润医药连锁有限公司普光药店",
  "address":"无锡市南长区瑞星家园36-16号",
  "latitude":"31.520146",
  "longitude":"120.30786"
  },
  {
  "name":"无锡天润医药连锁有限公司多多分店",
  "address":"无锡市锡山经济技术开发区春鑫路50-3号",
  "latitude":"31.628471",
  "longitude":"120.386453"
  },
  {
  "name":"无锡天润医药连锁有限公司夏家边药店",
  "address":"无锡市滨湖区夏家边家园36-4号",
  "latitude":"31.535017",
  "longitude":"120.267159"
  },
  {
  "name":"无锡天润医药连锁有限公司钱桥药店",
  "address":"无锡市惠山区钱桥街道通溪路79号金龙中心广场一层1006-1013号",
  "latitude":"31.600006",
  "longitude":"120.2296"
  }
  ]
